%time,field.header.seq,field.header.stamp,field.header.frame_id,field.poses0.position.x,field.poses0.position.y,field.poses0.position.z,field.poses0.orientation.x,field.poses0.orientation.y,field.poses0.orientation.z,field.poses0.orientation.w,field.poses1.position.x,field.poses1.position.y,field.poses1.position.z,field.poses1.orientation.x,field.poses1.orientation.y,field.poses1.orientation.z,field.poses1.orientation.w,field.poses2.position.x,field.poses2.position.y,field.poses2.position.z,field.poses2.orientation.x,field.poses2.orientation.y,field.poses2.orientation.z,field.poses2.orientation.w
1539699407781301975,1,1539699407781301975,map,-0.000361029664841,-1.20645165222e-05,0.0,0.0,0.0,-3.16201760111e-05,0.0,-1.9309387832e-05,0.000329612437189,0.0,0.0,0.0,0.000244547440342,0.0,-0.00070274994185,-0.000353741470233,0.0,0.0,0.0,-0.000307787792364,0.0
1539699407848299265,2,1539699407848299265,map,-0.000342965536417,-1.63134312956e-05,0.0,0.0,0.0,-4.88176432999e-05,0.0,3.45550572652e-05,0.000361167643263,0.0,0.0,0.0,0.000241939984685,0.0,-0.000720486130099,-0.000393794505854,0.0,0.0,0.0,-0.000339575271285,0.0
1539699407914976597,3,1539699407914976597,map,-0.000347590984438,-1.95997985146e-05,0.0,0.0,0.0,-0.000120339260448,0.0,2.9929609244e-05,0.000357881276044,0.0,0.0,0.0,0.000170418367537,0.0,-0.00072511157812,-0.000397080873073,0.0,0.0,0.0,-0.000411096888433,0.0
1539699407981159925,4,1539699407981159925,map,-0.000380923498719,-8.08630480753e-06,0.0,0.0,0.0,-3.38349146893e-05,0.0,7.69357256427e-06,0.000380489039359,0.0,0.0,0.0,0.00027361545286,0.0,-0.000769540570001,-0.000396661648975,0.0,0.0,0.0,-0.000341285282239,0.0
1539699408048057795,5,1539699408048057795,map,-0.000348048151086,-1.88178954561e-05,0.0,0.0,0.0,-2.29054149672e-05,0.0,4.54860137676e-05,0.000374673977268,0.0,0.0,0.0,0.000288957236053,0.0,-0.000741582315939,-0.000412309768181,0.0,0.0,0.0,-0.000334768065987,0.0
1539699408114578009,6,1539699408114578009,map,-0.000464925967869,-1.38733053814e-05,0.0,0.0,0.0,-5.94966083579e-05,0.0,-4.5513316373e-05,0.000405486576281,0.0,0.0,0.0,0.00026941636239,0.0,-0.000884338619364,-0.000433233187044,0.0,0.0,0.0,-0.000388409579106,0.0
1539699408181751013,7,1539699408181751013,map,-0.000465665310123,-1.33507166065e-05,0.0,0.0,0.0,-5.74047895117e-05,0.0,-4.62526586275e-05,0.000406009165056,0.0,0.0,0.0,0.000271508181236,0.0,-0.000885077961619,-0.000432710598269,0.0,0.0,0.0,-0.00038631776026,0.0
1539699408248783827,8,1539699408248783827,map,-0.000678310440252,-2.14190645704e-05,0.0,0.0,0.0,-8.18283178876e-05,0.0,-0.00020447887014,0.000452315734293,0.0,0.0,0.0,0.000276882425399,0.0,-0.00115214201036,-0.000495153863434,0.0,0.0,0.0,-0.000440539061174,0.0
1539699408314619541,9,1539699408314619541,map,-0.000529157703789,-2.92358108551e-05,0.0,0.0,0.0,-0.000335451784797,0.0,-0.000110635123824,0.000389224987433,0.0,0.0,0.0,3.75974241585e-05,0.0,-0.000947680283754,-0.000447696609143,0.0,0.0,0.0,-0.000708500993752,0.0
1539699408381649971,10,1539699408381649971,map,-0.000585832996076,-3.50300551488e-05,0.0,0.0,0.0,-0.000320152970711,0.0,-0.000130193519429,0.000420544466964,0.0,0.0,0.0,7.09827589646e-05,0.0,-0.00104147247272,-0.000490604577262,0.0,0.0,0.0,-0.000711288700386,0.0
1539699408465208054,11,1539699408465208054,map,-0.00058426293878,-3.4432379808e-05,0.0,0.0,0.0,-0.000297400931836,0.0,-0.000128623462133,0.000421142142305,0.0,0.0,0.0,9.37347978395e-05,0.0,-0.00103990241543,-0.000490006901921,0.0,0.0,0.0,-0.000688536661511,0.0
1539699408532093525,12,1539699408532093525,map,-0.000641647597248,-1.01977812414e-05,0.0,0.0,0.0,-0.000138449347459,0.0,-0.000155282222651,0.000476098127292,0.0,0.0,0.0,0.000277664852376,0.0,-0.00112801297184,-0.000496493689775,0.0,0.0,0.0,-0.000554563547293,0.0
1539699408598791838,13,1539699408598791838,map,-0.000670827676647,-5.97028215199e-06,0.0,0.0,0.0,-2.00529598798e-05,0.0,-0.000182759975945,0.000482029101339,0.0,0.0,0.0,0.000398711652718,0.0,-0.00115889537735,-0.000493969665643,0.0,0.0,0.0,-0.000438817572478,0.0
1539699408665185928,14,1539699408665185928,map,-0.000652382087226,-2.60966543983e-05,0.0,0.0,0.0,-0.000197555502009,0.0,-0.000164314386523,0.000461902729092,0.0,0.0,0.0,0.000221209110589,0.0,-0.00114044978793,-0.000514096037889,0.0,0.0,0.0,-0.000616320114607,0.0
1539699408731235504,15,1539699408731235504,map,-0.000733241687069,-2.62529010184e-05,0.0,0.0,0.0,-0.000249586867627,0.0,-0.000235292362997,0.0004716218288,0.0,0.0,0.0,0.000187515834624,0.0,-0.00123119101114,-0.000524127630837,0.0,0.0,0.0,-0.000686689569878,0.0
1539699408798007011,16,1539699408798007011,map,-0.000821463621647,-1.14930770534e-05,0.0,0.0,0.0,-5.25381068423e-05,0.0,-0.000275595370196,0.000534293168315,0.0,0.0,0.0,0.000401627345659,0.0,-0.0013673318731,-0.000557279322422,0.0,0.0,0.0,-0.000506703559343,0.0
1539699408865343094,17,1539699408865343094,map,-0.000805221220686,-1.34977164521e-05,0.0,0.0,0.0,-1.28804757719e-05,0.0,-0.00026846459619,0.000523181208738,0.0,0.0,0.0,0.000450263823405,0.0,-0.00134197784518,-0.000550176641642,0.0,0.0,0.0,-0.000476024774949,0.0
1539699408931677818,18,1539699408931677818,map,-0.000866574232461,-3.11533077737e-05,0.0,0.0,0.0,-0.00030663703186,0.0,-0.000233126313428,0.00060218383669,0.0,0.0,0.0,0.000176438896356,0.0,-0.00150002215149,-0.000664490452237,0.0,0.0,0.0,-0.000789712960075,0.0
1539699408998873949,19,1539699408998873949,map,-0.000954766876017,-2.67929587683e-05,0.0,0.0,0.0,-0.000216080306022,0.0,-0.000261832224284,0.000666018752237,0.0,0.0,0.0,0.000287074317349,0.0,-0.00164770152775,-0.000719604669773,0.0,0.0,0.0,-0.000719234929393,0.0
1539699409064594507,20,1539699409064594507,map,-0.000945372190145,-3.34247966327e-05,0.0,0.0,0.0,-0.000342873438145,0.0,-0.000252437538412,0.000659386914372,0.0,0.0,0.0,0.000160281185226,0.0,-0.00163830684188,-0.000726236507638,0.0,0.0,0.0,-0.000846028061516,0.0
1539699409132305384,21,1539699409132305384,map,-0.000826194475022,-3.36974195785e-05,0.0,0.0,0.0,-0.000286844677315,0.0,-0.00015483968597,0.0006375614473,0.0,0.0,0.0,0.000236175140124,0.0,-0.00149754926407,-0.000704956286457,0.0,0.0,0.0,-0.000809864494754,0.0
1539699409198137522,22,1539699409198137522,map,-0.00090331375304,-2.0746411729e-05,0.0,0.0,0.0,-5.18323997413e-05,0.0,-0.000196296559535,0.000686164339408,0.0,0.0,0.0,0.000473707762119,0.0,-0.00161033094654,-0.000727657162866,0.0,0.0,0.0,-0.000577372561602,0.0
1539699409265450478,23,1539699409265450478,map,-0.000885134187069,-2.3221734363e-05,0.0,0.0,0.0,-0.00017405951523,0.0,-0.000178116993564,0.000683689016774,0.0,0.0,0.0,0.00035148064663,0.0,-0.00159215138057,-0.0007301324855,0.0,0.0,0.0,-0.000699599677091,0.0
1539699409331743240,24,1539699409331743240,map,-0.000843101679063,-3.43591011593e-05,0.0,0.0,0.0,-0.000287224837644,0.0,-0.000159581450322,0.000649064572204,0.0,0.0,0.0,0.000255398446199,0.0,-0.0015266219078,-0.000717782774523,0.0,0.0,0.0,-0.000829848121487,0.0
1539699409398850203,25,1539699409398850203,map,-0.0010298883705,-4.72220580894e-05,0.0,0.0,0.0,-0.00037917698278,0.0,-0.000216152692446,0.000766380769524,0.0,0.0,0.0,0.000187736077644,0.0,-0.00184362404856,-0.000860824885703,0.0,0.0,0.0,-0.000946090043204,0.0
1539699409465043306,26,1539699409465043306,map,-0.000919804743824,-2.03298619832e-05,0.0,0.0,0.0,-8.4936926474e-05,0.0,-0.000175728388788,0.000723644185658,0.0,0.0,0.0,0.000485991102091,0.0,-0.00166388109886,-0.000764303909624,0.0,0.0,0.0,-0.000655864955039,0.0
1539699409532278538,27,1539699409532278538,map,-0.000951226802954,-9.67979619371e-06,0.0,0.0,0.0,-2.80745549851e-05,0.0,-0.000170068751786,0.000771374830935,0.0,0.0,0.0,0.000558623181077,0.0,-0.00173238485412,-0.000790734423323,0.0,0.0,0.0,-0.000614772291047,0.0
1539699409598679781,28,1539699409598679781,map,-0.000970126687563,-2.58279976046e-05,0.0,0.0,0.0,-0.00014085686895,0.0,-0.000180497851888,0.000763690700076,0.0,0.0,0.0,0.000459399196004,0.0,-0.00175975552324,-0.000815346695285,0.0,0.0,0.0,-0.000741112933904,0.0
1539699409665420294,29,1539699409665420294,map,-0.000945392645558,-3.96924304968e-05,0.0,0.0,0.0,-0.000356697462402,0.0,-0.000155763809882,0.000749826267183,0.0,0.0,0.0,0.000243558602552,0.0,-0.00173502148123,-0.000829211128177,0.0,0.0,0.0,-0.000956953527356,0.0
1539699409732148886,30,1539699409732148886,map,-0.00102901069723,-2.84119592959e-05,0.0,0.0,0.0,-0.000336074066261,0.0,-0.00022561525066,0.000774863441243,0.0,0.0,0.0,0.000284808254148,0.0,-0.00183240614381,-0.000831687359835,0.0,0.0,0.0,-0.00095695638667,0.0
1539699409798089027,31,1539699409798089027,map,-0.00106178337772,-2.76028416417e-05,0.0,0.0,0.0,-0.000302573648827,0.0,-0.00025000304256,0.000784040882073,0.0,0.0,0.0,0.000341652638652,0.0,-0.00187356371288,-0.000839246565357,0.0,0.0,0.0,-0.000946799936307,0.0
1539699409864609718,32,1539699409864609718,map,-0.00107655681324,-1.25559000124e-05,0.0,0.0,0.0,-4.19037931418e-05,0.0,-0.000265686832411,0.00079818521535,0.0,0.0,0.0,0.000607342515133,0.0,-0.00188742679408,-0.000823297015375,0.0,0.0,0.0,-0.000691150101417,0.0
1539699409931946516,33,1539699409931946516,map,-0.00105224039062,-1.8948194159e-05,0.0,0.0,0.0,-0.000170895826975,0.0,-0.000241370409785,0.000791792921204,0.0,0.0,0.0,0.0004783504813,0.0,-0.00186311037145,-0.000829689309522,0.0,0.0,0.0,-0.000820142135251,0.0
1539699410014584064,34,1539699410014584064,map,-0.00113520522905,-1.12627836863e-05,0.0,0.0,0.0,-8.75913735545e-05,0.0,-0.000273294194164,0.000850508748781,0.0,0.0,0.0,0.000578424265346,0.0,-0.00199711626394,-0.000873034316154,0.0,0.0,0.0,-0.000753607012455,0.0
1539699410065209150,35,1539699410065209150,map,-0.00110635649756,-3.36639184784e-05,0.0,0.0,0.0,-0.000340555874652,0.0,-0.000248381230015,0.000824177669734,0.0,0.0,0.0,0.000352135811581,0.0,-0.0019643317651,-0.000891505506691,0.0,0.0,0.0,-0.00103324756089,0.0
1539699410148535490,36,1539699410148535490,map,-0.00111829194832,-1.71881935711e-05,0.0,0.0,0.0,-0.000218472299125,0.0,-0.00026031668078,0.000840653394641,0.0,0.0,0.0,0.000474219387108,0.0,-0.00197626721586,-0.000875029781783,0.0,0.0,0.0,-0.000911163985358,0.0
1539699410215365171,37,1539699410215365171,map,-0.0011178828769,-3.30613113331e-05,0.0,0.0,0.0,-0.000334968040743,0.0,-0.000258054684872,0.000826633828401,0.0,0.0,0.0,0.000364019797312,0.0,-0.00197771106892,-0.000892756451067,0.0,0.0,0.0,-0.0010339558788,0.0
1539699410282123089,38,1539699410282123089,map,-0.00120446044974,-3.58892754544e-05,0.0,0.0,0.0,-0.000312997129896,0.0,-0.000335901007601,0.000832531098244,0.0,0.0,0.0,0.000410115784865,0.0,-0.00207301989187,-0.000904309649153,0.0,0.0,0.0,-0.00103611004466,0.0
1539699410348809958,39,1539699410348809958,map,-0.00125831703257,-3.30303643381e-05,0.0,0.0,0.0,-0.000216448901613,0.0,-0.000376168030585,0.000848975326207,0.0,0.0,0.0,0.000524598297373,0.0,-0.00214046603456,-0.000915036054883,0.0,0.0,0.0,-0.000957496100599,0.0
1539699410415299892,40,1539699410415299892,map,-0.00132726232714,-1.70545080409e-05,0.0,0.0,0.0,-0.000187123315031,0.0,-0.000397415365613,0.000912631075757,0.0,0.0,0.0,0.000557056458084,0.0,-0.00225710928867,-0.000946740091839,0.0,0.0,0.0,-0.000931303088146,0.0
1539699410481479406,41,1539699410481479406,map,-0.00141415162343,-2.1067417493e-05,0.0,0.0,0.0,-0.000159133658007,0.0,-0.000381713837421,0.00101118432477,0.0,0.0,0.0,0.000588516023678,0.0,-0.00244658940944,-0.00105331915975,0.0,0.0,0.0,-0.000906783339691,0.0
1539699410548798800,42,1539699410548798800,map,-0.0012585084286,-3.06235867356e-05,0.0,0.0,0.0,-0.000257939368059,0.0,-0.000340240436331,0.000887498496226,0.0,0.0,0.0,0.000509369712497,0.0,-0.00217677642087,-0.000948745669697,0.0,0.0,0.0,-0.00102524844862,0.0
1539699410614609241,43,1539699410614609241,map,-0.00124685807344,-3.51366022768e-05,0.0,0.0,0.0,-0.000358069893273,0.0,-0.000328590081166,0.000882985480685,0.0,0.0,0.0,0.000409239187284,0.0,-0.00216512606571,-0.000953258685239,0.0,0.0,0.0,-0.00112537897383,0.0
1539699410681592226,44,1539699410681592226,map,-0.00141565561606,-3.85305579054e-05,0.0,0.0,0.0,-0.000239259208365,0.0,-0.000400986757119,0.000975953212782,0.0,0.0,0.0,0.000566170805092,0.0,-0.00243032447499,-0.00105301432859,0.0,0.0,0.0,-0.00104468922182,0.0
1539699410748543024,45,1539699410748543024,map,-0.00142293459463,-2.70736856958e-05,0.0,0.0,0.0,-0.000228583262401,0.0,-0.000408265735693,0.000987410084991,0.0,0.0,0.0,0.000576846751056,0.0,-0.00243760345357,-0.00104155745638,0.0,0.0,0.0,-0.00103401327586,0.0
1539699410814530611,46,1539699410814530611,map,-0.00138416042825,-2.44021471678e-05,0.0,0.0,0.0,-0.000253904436683,0.0,-0.000369368796032,0.000990214297338,0.0,0.0,0.0,0.000559719563434,0.0,-0.00239895206046,-0.00103901859167,0.0,0.0,0.0,-0.0010675284368,0.0
1539699410881728888,47,1539699410881728888,map,-0.00148140010981,-4.05219673856e-05,0.0,0.0,0.0,-0.000343865687322,0.0,-0.000368961216849,0.00107171662496,0.0,0.0,0.0,0.000487235379237,0.0,-0.00259383900278,-0.00115276055973,0.0,0.0,0.0,-0.00117496675388,0.0
1539699410964803457,48,1539699410964803457,map,-0.00154026519963,-5.4961146926e-05,0.0,0.0,0.0,-0.000408442874337,0.0,-0.000419576918478,0.00106553319265,0.0,0.0,0.0,0.000442399312391,0.0,-0.00266095348078,-0.00117545548651,0.0,0.0,0.0,-0.00125928506107,0.0
1539699411031986475,49,1539699411031986475,map,-0.00154844133568,-2.77201514565e-05,0.0,0.0,0.0,-0.000388391066257,0.0,-0.000427753054535,0.00109277418812,0.0,0.0,0.0,0.000462451120471,0.0,-0.00266912961683,-0.00114821449104,0.0,0.0,0.0,-0.00123923325299,0.0
1539699411098760843,50,1539699411098760843,map,-0.00156880986891,-1.22834948439e-05,0.0,0.0,0.0,-0.000158636497051,0.0,-0.000446995081014,0.00110934531222,0.0,0.0,0.0,0.000714142803373,0.0,-0.00269062465681,-0.0011339123019,0.0,0.0,0.0,-0.00103141579747,0.0
1539699411164598942,51,1539699411164598942,map,-0.00155338175998,-3.24768453288e-05,0.0,0.0,0.0,-6.91538363333e-05,0.0,-0.000431566972088,0.00108915196173,0.0,0.0,0.0,0.00080362546409,0.0,-0.00267519654788,-0.00115410565239,0.0,0.0,0.0,-0.000941933136757,0.0
1539699411232188463,52,1539699411232188463,map,-0.001446580535,-4.03643117608e-05,0.0,0.0,0.0,-0.000476769043115,0.0,-0.000344513840986,0.00106152972892,0.0,0.0,0.0,0.000398571133655,0.0,-0.00254864722901,-0.00114225835244,0.0,0.0,0.0,-0.00135210921988,0.0
1539699411298765898,53,1539699411298765898,map,-0.00153456832509,-1.81125798153e-05,0.0,0.0,0.0,-0.000273033183835,0.0,-0.000394476132881,0.00112180310697,0.0,0.0,0.0,0.000620007486574,0.0,-0.00267466051729,-0.0011580282666,0.0,0.0,0.0,-0.00116607385424,0.0
1539699411365260363,54,1539699411365260363,map,-0.00149367547193,-3.70180305347e-05,0.0,0.0,0.0,-0.000268408208058,0.0,-0.000341862753834,0.00111461101063,0.0,0.0,0.0,0.000640721139765,0.0,-0.00264548819002,-0.0011886470717,0.0,0.0,0.0,-0.00117753755588,0.0
1539699411432189703,55,1539699411432189703,map,-0.00150336601947,-2.10048985416e-05,0.0,0.0,0.0,-0.000227943952446,0.0,-0.00035155330138,0.00113062414263,0.0,0.0,0.0,0.000681185395377,0.0,-0.00265517873756,-0.00117263393971,0.0,0.0,0.0,-0.00113707330027,0.0
1539699411497882128,56,1539699411497882128,map,-0.00160258049962,-2.96091843972e-05,0.0,0.0,0.0,-0.000359934920252,0.0,-0.000445801971602,0.00112698281459,0.0,0.0,0.0,0.00057996650619,0.0,-0.00275935902765,-0.00118620118338,0.0,0.0,0.0,-0.00129983634669,0.0
1539699411565569401,57,1539699411565569401,map,-0.00159284415944,-4.30343260136e-05,0.0,0.0,0.0,-0.00037053628241,0.0,-0.000429179872848,0.00112044781032,0.0,0.0,0.0,0.000573009192172,0.0,-0.00275650844603,-0.00120651646234,0.0,0.0,0.0,-0.00131408175699,0.0
1539699411631182432,58,1539699411631182432,map,-0.00161447515574,-2.68994717787e-05,0.0,0.0,0.0,-0.000254829108563,0.0,-0.000450810869143,0.00113658266455,0.0,0.0,0.0,0.000688716366019,0.0,-0.00277813944233,-0.00119038160811,0.0,0.0,0.0,-0.00119837458314,0.0
1539699411698394775,59,1539699411698394775,map,-0.00166444920969,-1.83950845973e-05,0.0,0.0,0.0,-0.000276248156643,0.0,-0.000463556823519,0.00118231424638,0.0,0.0,0.0,0.000684634916319,0.0,-0.00286534159586,-0.00121910441558,0.0,0.0,0.0,-0.00123713122961,0.0
1539699411765721560,60,1539699411765721560,map,-0.00164718385758,-4.02965192796e-05,0.0,0.0,0.0,-0.000360140978732,0.0,-0.000430694667252,0.00117600491339,0.0,0.0,0.0,0.000625020054629,0.0,-0.00286367304791,-0.00125659795195,0.0,0.0,0.0,-0.00134530201209,0.0
1539699411832245350,61,1539699411832245350,map,-0.00165314198243,-4.44876798935e-05,0.0,0.0,0.0,-0.000387159130136,0.0,-0.000434984984219,0.00117348237983,0.0,0.0,0.0,0.000601034539729,0.0,-0.00287129898064,-0.00126245773961,0.0,0.0,0.0,-0.0013753528,0.0
1539699411898244858,62,1539699411898244858,map,-0.0016795406704,-3.12939329838e-05,0.0,0.0,0.0,-0.000435000233105,0.0,-0.000455810453973,0.00119224716111,0.0,0.0,0.0,0.000556720336359,0.0,-0.00290327088684,-0.00125483502708,0.0,0.0,0.0,-0.00142672080257,0.0
1539699411965370417,63,1539699411965370417,map,-0.0018410680408,-1.81092231737e-05,0.0,0.0,0.0,-0.000161541547769,0.0,-0.000572829808485,0.00124992575953,0.0,0.0,0.0,0.000849731437234,0.0,-0.00310930627312,-0.00128614420587,0.0,0.0,0.0,-0.00117281453277,0.0
1539699412048068523,64,1539699412048068523,map,-0.00191948308953,-3.49128325381e-05,0.0,0.0,0.0,-0.000256549495091,0.0,-0.000628575360363,0.00125577447069,0.0,0.0,0.0,0.000774554529451,0.0,-0.00321039081871,-0.00132560013576,0.0,0.0,0.0,-0.00128765351963,0.0
1539699412115305424,65,1539699412115305424,map,-0.00198164972854,-1.65156405312e-05,0.0,0.0,0.0,-0.000212452076479,0.0,-0.000712239690826,0.00125266800978,0.0,0.0,0.0,0.000840941923496,0.0,-0.00325105976626,-0.00128569929084,0.0,0.0,0.0,-0.00126584607645,0.0
1539699412181898355,66,1539699412181898355,map,-0.00197867571905,-6.76069910166e-06,0.0,0.0,0.0,-0.000238416682526,0.0,-0.000709265681334,0.00126242295121,0.0,0.0,0.0,0.000814977317448,0.0,-0.00324808575677,-0.00127594434941,0.0,0.0,0.0,-0.0012918106825,0.0
1539699412247783184,67,1539699412247783184,map,-0.0018696320542,-4.50177183879e-05,0.0,0.0,0.0,-0.000506824927922,0.0,-0.000616566007075,0.00120783776018,0.0,0.0,0.0,0.000550553199345,0.0,-0.00312269810132,-0.00129787319696,0.0,0.0,0.0,-0.00156420305519,0.0
1539699412315475225,68,1539699412315475225,map,-0.00193740946377,-2.61710167488e-05,0.0,0.0,0.0,-0.000381633942255,0.0,-0.000637117973885,0.00127390133924,0.0,0.0,0.0,0.000701496180562,0.0,-0.00323770095365,-0.00132624337273,0.0,0.0,0.0,-0.00146476406507,0.0
1539699412381577253,69,1539699412381577253,map,-0.00195141184608,-2.2820341494e-05,0.0,0.0,0.0,-0.000361087254722,0.0,-0.000632768907568,0.00129560930715,0.0,0.0,0.0,0.000736049309404,0.0,-0.0032700547846,-0.00134124999014,0.0,0.0,0.0,-0.00145822381885,0.0
1539699412448579550,70,1539699412448579550,map,-0.00197873888435,-1.23665730292e-05,0.0,0.0,0.0,-0.000178626917998,0.0,-0.000660095945838,0.00130606307562,0.0,0.0,0.0,0.000918509646129,0.0,-0.00329738182287,-0.00133079622168,0.0,0.0,0.0,-0.00127576348212,0.0
1539699412514540195,71,1539699412514540195,map,-0.00200754525115,-2.2499624307e-05,0.0,0.0,0.0,-0.000275536276303,0.0,-0.000678052919948,0.00130677404739,0.0,0.0,0.0,0.000848162860434,0.0,-0.00333703758235,-0.001351773296,0.0,0.0,0.0,-0.00139923541304,0.0
1539699412581834078,72,1539699412581834078,map,-0.00198013552357,-3.62602604482e-05,0.0,0.0,0.0,-0.000435751486833,0.0,-0.00065064319237,0.00129301341125,0.0,0.0,0.0,0.000687947649904,0.0,-0.00330962785477,-0.00136553393214,0.0,0.0,0.0,-0.00155945062357,0.0
1539699412648086548,73,1539699412648086548,map,-0.00198391450427,-4.51018976575e-05,0.0,0.0,0.0,-0.000503434416637,0.0,-0.000647223588426,0.00129137136133,0.0,0.0,0.0,0.000624504350783,0.0,-0.00332060542012,-0.00138157515665,0.0,0.0,0.0,-0.00163137318406,0.0
1539699412714553595,74,1539699412714553595,map,-0.00205123014848,-3.15793395156e-05,0.0,0.0,0.0,-0.000421611346034,0.0,-0.000665869627893,0.00135355838829,0.0,0.0,0.0,0.000725410936969,0.0,-0.00343659066907,-0.00141671706732,0.0,0.0,0.0,-0.00156863362904,0.0
1539699412781450272,75,1539699412781450272,map,-0.00210625597576,-3.49580124182e-05,0.0,0.0,0.0,-0.000317432383348,0.0,-0.000659265949844,0.00141180541519,0.0,0.0,0.0,0.000847970678962,0.0,-0.00355324600168,-0.00148172144003,0.0,0.0,0.0,-0.00148283544566,0.0
1539699412848603725,76,1539699412848603725,map,-0.00210959157999,-3.1383270245e-05,0.0,0.0,0.0,-0.000355206570002,0.0,-0.000658887981094,0.00141909262289,0.0,0.0,0.0,0.000810492643907,0.0,-0.00356029517888,-0.00148185916338,0.0,0.0,0.0,-0.00152090578391,0.0
1539699412914613008,77,1539699412914613008,map,-0.00213111718166,-3.13806533963e-05,0.0,0.0,0.0,-0.000438740910705,0.0,-0.000685813932678,0.00141369715771,0.0,0.0,0.0,0.000742742607542,0.0,-0.00357642043065,-0.00147645846451,0.0,0.0,0.0,-0.00162022442895,0.0
1539699412981991291,78,1539699412981991291,map,-0.00226586138276,-2.78075486133e-05,0.0,0.0,0.0,-0.000345240099024,0.0,-0.000757782205587,0.00148002259574,0.0,0.0,0.0,0.000854952592749,0.0,-0.00377394055994,-0.00153563769296,0.0,0.0,0.0,-0.0015454327908,0.0
1539699413048409224,79,1539699413048409224,map,-0.00226054028433,-1.86267496929e-05,0.0,0.0,0.0,-0.000340074194225,0.0,-0.000752461107155,0.00148920339466,0.0,0.0,0.0,0.000860118497548,0.0,-0.00376861946151,-0.00152645689404,0.0,0.0,0.0,-0.001540266886,0.0
1539699413114598513,80,1539699413114598513,map,-0.00223347273264,-2.20748381508e-05,0.0,0.0,0.0,-0.000355794941572,0.0,-0.00071813268067,0.00149302464655,0.0,0.0,0.0,0.000863293830051,0.0,-0.00374881278462,-0.00153717432286,0.0,0.0,0.0,-0.0015748837132,0.0
1539699413198695421,81,1539699413198695421,map,-0.00224477226365,-1.53919604979e-05,0.0,0.0,0.0,-0.000190946522969,0.0,-0.000702914192533,0.00152623465659,0.0,0.0,0.0,0.00104098417508,0.0,-0.00378663033477,-0.00155701857758,0.0,0.0,0.0,-0.00142287722102,0.0
1539699413264953852,82,1539699413264953852,map,-0.00222074046494,-3.22040018352e-05,0.0,0.0,0.0,-0.000377209263648,0.0,-0.000678882393825,0.00150942261525,0.0,0.0,0.0,0.000854721434404,0.0,-0.00376259853606,-0.00157383061892,0.0,0.0,0.0,-0.0016091399617,0.0
1539699413331690073,83,1539699413331690073,map,-0.00224045191491,-1.69797695466e-05,0.0,0.0,0.0,-0.000339872741689,0.0,-0.000685543439234,0.00153769580896,0.0,0.0,0.0,0.000911917237203,0.0,-0.00379536039059,-0.00157165534805,0.0,0.0,0.0,-0.00159166272058,0.0
1539699413398117781,84,1539699413398117781,map,-0.00242699694847,-3.68709581089e-05,0.0,0.0,0.0,-0.000358464110526,0.0,-0.000804558501489,0.00158531398122,0.0,0.0,0.0,0.000910414913476,0.0,-0.00404943539545,-0.00165905589744,0.0,0.0,0.0,-0.00162734313453,0.0
1539699413465181828,85,1539699413465181828,map,-0.00231204560405,-2.7476934823e-05,0.0,0.0,0.0,-0.000363916513462,0.0,-0.000722107759509,0.00156222475295,0.0,0.0,0.0,0.000907385985882,0.0,-0.00390198344858,-0.0016171786226,0.0,0.0,0.0,-0.00163521901281,0.0
1539699413531986237,86,1539699413531986237,map,-0.00231153564668,-3.85200017454e-05,0.0,0.0,0.0,-0.000500477350926,0.0,-0.000720564665147,0.00155221393151,0.0,0.0,0.0,0.000784695386868,0.0,-0.00390250662821,-0.001629253935,0.0,0.0,0.0,-0.00178565008872,0.0
1539699413598294973,87,1539699413598294973,map,-0.00244064152031,-2.02479785429e-05,0.0,0.0,0.0,-0.000250348574417,0.0,-0.000847540962687,0.0015725977797,0.0,0.0,0.0,0.00106417934932,0.0,-0.00403374207794,-0.00161309373678,0.0,0.0,0.0,-0.00156487649816,0.0
1539699413664879084,88,1539699413664879084,map,-0.0024072045165,-2.97131253566e-05,0.0,0.0,0.0,-0.000393825896452,0.0,-0.000814103958871,0.00156313263288,0.0,0.0,0.0,0.000920702027291,0.0,-0.00400030507412,-0.0016225588836,0.0,0.0,0.0,-0.00170835382019,0.0
1539699413731054306,89,1539699413731054306,map,-0.00255001493939,-1.5918342253e-05,0.0,0.0,0.0,-0.000327884742135,0.0,-0.00092806525528,0.00160573891131,0.0,0.0,0.0,0.00101306598084,0.0,-0.00417196462351,-0.00163757559582,0.0,0.0,0.0,-0.00166883546511,0.0
1539699413798919678,90,1539699413798919678,map,-0.0026576314082,-2.67445744759e-05,0.0,0.0,0.0,-0.000323393241182,0.0,-0.000916423844557,0.00171413051112,0.0,0.0,0.0,0.00101909460095,0.0,-0.00439883897184,-0.00176761966008,0.0,0.0,0.0,-0.00166588108332,0.0
1539699413865586996,91,1539699413865586996,map,-0.00257976861839,-4.13413927258e-05,0.0,0.0,0.0,-0.000404220066764,0.0,-0.000936330146357,0.00160181123231,0.0,0.0,0.0,0.000955663831448,0.0,-0.00422320709042,-0.00168449401776,0.0,0.0,0.0,-0.00176410396498,0.0
1539699413932325125,92,1539699413932325125,map,-0.00272429646918,-1.82448494681e-05,0.0,0.0,0.0,-0.000340967940614,0.0,-0.00103713529521,0.00166861849325,0.0,0.0,0.0,0.00103710036831,0.0,-0.00441145764315,-0.00170510819218,0.0,0.0,0.0,-0.00171903624954,0.0
1539699413998118877,93,1539699413998118877,map,-0.00265567771871,-1.92777422416e-05,0.0,0.0,0.0,-0.000249162043502,0.0,-0.000992247808872,0.00164387821403,0.0,0.0,0.0,0.00113268536598,0.0,-0.00431910762855,-0.00168243369852,0.0,0.0,0.0,-0.00163100945298,0.0
1539699414065640450,94,1539699414065640450,map,-0.00261743070998,-4.24102413348e-05,0.0,0.0,0.0,-0.000443770358527,0.0,-0.000940002743952,0.00163473930688,0.0,0.0,0.0,0.000950486178881,0.0,-0.004294858676,-0.00171955978955,0.0,0.0,0.0,-0.00183802689594,0.0
1539699414132189274,95,1539699414132189274,map,-0.00268274951847,-3.70885430483e-05,0.0,0.0,0.0,-0.000399560985132,0.0,-0.000973062703978,0.00167231767042,0.0,0.0,0.0,0.00100968933042,0.0,-0.00439243633296,-0.00174649475651,0.0,0.0,0.0,-0.00180881130069,0.0
1539699414198197842,96,1539699414198197842,map,-0.00238317002034,-3.60143031781e-05,0.0,0.0,0.0,-0.00105415037743,0.0,-0.000673483205843,0.00167339191029,0.0,0.0,0.0,0.000355099938125,0.0,-0.00409285683483,-0.00174542051664,0.0,0.0,0.0,-0.00246340069299,0.0
1539699414282079220,97,1539699414282079220,map,0.000651096779382,4.75317087667e-05,0.0,0.0,0.0,-0.000922087904601,0.0,0.00239289611738,0.00178903831953,0.0,0.0,0.0,0.000503839918489,0.0,-0.00109070255862,-0.001693974902,0.0,0.0,0.0,-0.00234801572769,0.0
1539699414348575354,98,1539699414348575354,map,0.00393575144209,-6.90155053463e-05,0.0,0.0,0.0,-0.00152433515396,0.0,0.00577631540342,0.00177125322067,0.0,0.0,0.0,-7.96165258738e-05,0.0,0.00209518748076,-0.00190928423136,0.0,0.0,0.0,-0.00296905378204,0.0
1539699414414585114,99,1539699414414585114,map,0.00477459056427,-0.00012780821118,0.0,0.0,0.0,-0.00195459888724,0.0,0.00654410632768,0.00164151262238,0.0,0.0,0.0,-0.000494365761566,0.0,0.00300507480086,-0.00189712904474,0.0,0.0,0.0,-0.00341483201292,0.0
1539699414481997728,100,1539699414481997728,map,0.0120547297896,-0.000179447709357,0.0,0.0,0.0,-0.00339277669422,0.0,0.013824245553,0.0015898731242,0.0,0.0,0.0,-0.00193254356854,0.0,0.0102852140262,-0.00194876854291,0.0,0.0,0.0,-0.0048530098199,0.0
1539699414547824383,101,1539699414547824383,map,0.0183237359975,-0.000179674359552,0.0,0.0,0.0,-0.0053391568964,0.0,0.0200926038578,0.00158903433093,0.0,0.0,0.0,-0.00387418059793,0.0,0.0165548681372,-0.00194838305003,0.0,0.0,0.0,-0.00680413319486,0.0
1539699414614509821,102,1539699414614509821,map,0.0161823046291,-0.000321405378292,0.0,0.0,0.0,-0.00686897131271,0.0,0.0180121739558,0.00150879419284,0.0,0.0,0.0,-0.00537545654021,0.0,0.0143524353024,-0.00215160494943,0.0,0.0,0.0,-0.00836248608521,0.0
1539699414681134224,103,1539699414681134224,map,0.0131210325757,-0.000445229679987,0.0,0.0,0.0,-0.00426105995945,0.0,0.0149340566777,0.00136918667328,0.0,0.0,0.0,-0.002740535751,0.0,0.0113080084737,-0.00225964603326,0.0,0.0,0.0,-0.0057815841679,0.0
1539699414748370647,104,1539699414748370647,map,0.0167746282978,-0.000467192874993,0.0,0.0,0.0,-0.00372830220047,0.0,0.01859202864,0.00135242172929,0.0,0.0,0.0,-0.00219102723866,0.0,0.0149572279556,-0.00228680747928,0.0,0.0,0.0,-0.00526557716228,0.0
1539699414815175056,105,1539699414815175056,map,0.0220111692736,-0.000357151105112,0.0,0.0,0.0,-0.00413792029463,0.0,0.0238357665341,0.00147042723759,0.0,0.0,0.0,-0.00259373169764,0.0,0.0201865720132,-0.00218472944782,0.0,0.0,0.0,-0.00568210889162,0.0
1539699414882035732,106,1539699414882035732,map,0.0143213967826,-0.000424841839594,0.0,0.0,0.0,-0.00342343554375,0.0,0.0161571470415,0.00141703910243,0.0,0.0,0.0,-0.00184505773944,0.0,0.0124856465237,-0.00226672278162,0.0,0.0,0.0,-0.00500181334805,0.0
1539699414948009253,107,1539699414948009253,map,0.0252739620577,-0.000314817703658,0.0,0.0,0.0,-0.00811103513412,0.0,0.0271097123166,0.00152706323837,0.0,0.0,0.0,-0.00653265732982,0.0,0.0234382117988,-0.00215669864568,0.0,0.0,0.0,-0.00968941293842,0.0
1539699415014565945,108,1539699415014565945,map,0.00983868715386,-0.000893815210579,0.0,0.0,0.0,-0.00997916615255,0.0,0.0116883414697,0.000968500367482,0.0,0.0,0.0,-0.0083475172312,0.0,0.00798903283803,-0.00275613078864,0.0,0.0,0.0,-0.0116108150739,0.0
1539699415082206488,109,1539699415082206488,map,0.0211856852111,-0.00130568580964,0.0,0.0,0.0,-0.0215021478907,0.0,0.023035339527,0.000556629768424,0.0,0.0,0.0,-0.0198704989694,0.0,0.0193360308953,-0.0031680013877,0.0,0.0,0.0,-0.0231337968121,0.0
1539699415148083210,110,1539699415148083210,map,0.0238214899017,-0.00211420509108,0.0,0.0,0.0,-0.0291586069529,0.0,0.0257726567828,-0.000147720971921,0.0,0.0,0.0,-0.0275143372119,0.0,0.0218703230205,-0.00408068921024,0.0,0.0,0.0,-0.0308028766938,0.0
1539699415215533257,111,1539699415215533257,map,0.0191035321389,-0.0036119148352,0.0,0.0,0.0,-0.028541505478,0.0,0.021043230012,-0.00165141735387,0.0,0.0,0.0,-0.026866885287,0.0,0.0171638342657,-0.00557241231653,0.0,0.0,0.0,-0.0302161256691,0.0
1539699415281155109,112,1539699415281155109,map,0.0121972827433,-0.0054519759184,0.0,0.0,0.0,-0.0202021781142,0.0,0.0140912321854,-0.00352997925735,0.0,0.0,0.0,-0.0184918787969,0.0,0.0103033333011,-0.00737397257945,0.0,0.0,0.0,-0.0219124774315,0.0
1539699415348332644,113,1539699415348332644,map,0.0149811851804,-0.00602349245925,0.0,0.0,0.0,-0.0268620486989,0.0,0.0168718920097,-0.00410086835564,0.0,0.0,0.0,-0.0251293803305,0.0,0.0130904783512,-0.00794611656286,0.0,0.0,0.0,-0.0285947170673,0.0
1539699415415143251,114,1539699415415143251,map,0.0159499425065,-0.00727678321989,0.0,0.0,0.0,-0.0258199469635,0.0,0.0178888473174,-0.00530123000979,0.0,0.0,0.0,-0.0240691135704,0.0,0.0140110376956,-0.00925233642999,0.0,0.0,0.0,-0.0275707803566,0.0
1539699415482034445,115,1539699415482034445,map,0.00935947122018,-0.00954423137128,0.0,0.0,0.0,-0.0267671291989,0.0,0.0113675002823,-0.0074903524104,0.0,0.0,0.0,-0.0249754358355,0.0,0.00735144215806,-0.0115981103322,0.0,0.0,0.0,-0.0285588225623,0.0
1539699415548657894,116,1539699415548657894,map,0.0208939093353,-0.0097288923132,0.0,0.0,0.0,-0.0517413787396,0.0,0.0229019383974,-0.00767501335232,0.0,0.0,0.0,-0.0499496853762,0.0,0.0188858802732,-0.0117827712741,0.0,0.0,0.0,-0.053533072103,0.0
1539699415631223679,117,1539699415631223679,map,0.0223994225411,-0.0114194956873,0.0,0.0,0.0,-0.0636745849009,0.0,0.0243394439819,-0.00942636012699,0.0,0.0,0.0,-0.0618485306611,0.0,0.0204594011002,-0.0134126312476,0.0,0.0,0.0,-0.0655006391408,0.0
1539699415697956800,118,1539699415697956800,map,0.0174651867418,-0.0142147602806,0.0,0.0,0.0,-0.0532087515369,0.0,0.0193979964773,-0.0122184713859,0.0,0.0,0.0,-0.0513340451252,0.0,0.0155323770062,-0.0162110491753,0.0,0.0,0.0,-0.0550834579486,0.0
1539699415764942884,119,1539699415764942884,map,0.010316256037,-0.017603433929,0.0,0.0,0.0,-0.0338255707598,0.0,0.012267133411,-0.0155772416197,0.0,0.0,0.0,-0.0318941084416,0.0,0.00836537866296,-0.0196296262383,0.0,0.0,0.0,-0.0357570330781,0.0
1539699415832466602,120,1539699415832466602,map,0.0206700456299,-0.0170814071674,0.0,0.0,0.0,-0.0552914320493,0.0,0.0226354121456,-0.0150392500057,0.0,0.0,0.0,-0.0533530496126,0.0,0.0187046791141,-0.0191235643291,0.0,0.0,0.0,-0.057229814486,0.0
1539699415898925543,121,1539699415898925543,map,0.017480775823,-0.0191863559225,0.0,0.0,0.0,-0.0496160942378,0.0,0.0194959695544,-0.0170832537337,0.0,0.0,0.0,-0.0476197906006,0.0,0.0154655820916,-0.0212894581113,0.0,0.0,0.0,-0.051612397875,0.0
1539699415965481997,122,1539699415965481997,map,0.011660090743,-0.0221973022685,0.0,0.0,0.0,-0.0405756178728,0.0,0.0136793535956,-0.0200766103246,0.0,0.0,0.0,-0.0385013118278,0.0,0.00964082789033,-0.0243179942124,0.0,0.0,0.0,-0.0426499239179,0.0
1539699416031744242,123,1539699416031744242,map,0.0225837715854,-0.0201619258157,0.0,0.0,0.0,-0.0648218438881,0.0,0.0246030344381,-0.0180412338718,0.0,0.0,0.0,-0.062747537843,0.0,0.0205645087328,-0.0222826177596,0.0,0.0,0.0,-0.0668961499331,0.0
1539699416097832918,124,1539699416097832918,map,0.016727933828,-0.0234290381241,0.0,0.0,0.0,-0.050657296707,0.0,0.0188093848478,-0.0212318237928,0.0,0.0,0.0,-0.048509621165,0.0,0.0146464828082,-0.0256262524555,0.0,0.0,0.0,-0.0528049722491,0.0
1539699416165629864,125,1539699416165629864,map,0.0114920783736,-0.026515260255,0.0,0.0,0.0,-0.0399158940111,0.0,0.0135514220415,-0.0243249846438,0.0,0.0,0.0,-0.0376881201679,0.0,0.00943273470567,-0.0287055358662,0.0,0.0,0.0,-0.0421436678543,0.0
1539699416232193947,126,1539699416232193947,map,0.0204101654943,-0.0244564305954,0.0,0.0,0.0,-0.0597952113028,0.0,0.0224709050313,-0.0222632035941,0.0,0.0,0.0,-0.0575576205934,0.0,0.0183494259574,-0.0266496575968,0.0,0.0,0.0,-0.0620328020122,0.0
1539699416298330784,127,1539699416298330784,map,0.0168088756251,-0.0272865809893,0.0,0.0,0.0,-0.0499312865408,0.0,0.0188933486233,-0.025055213987,0.0,0.0,0.0,-0.0476207398779,0.0,0.0147244026269,-0.0295179479916,0.0,0.0,0.0,-0.0522418332036,0.0
1539699416365370035,128,1539699416365370035,map,0.0124334757035,-0.0303867851661,0.0,0.0,0.0,-0.0390493297881,0.0,0.0145347846729,-0.0281227372341,0.0,0.0,0.0,-0.0366551457692,0.0,0.0103321667341,-0.032650833098,0.0,0.0,0.0,-0.0414435138069,0.0
1539699416432300091,129,1539699416432300091,map,0.0228378413646,-0.0271596615297,0.0,0.0,0.0,-0.0629782671817,0.0,0.024939150334,-0.0248956135978,0.0,0.0,0.0,-0.0605840831629,0.0,0.0207365323951,-0.0294237094617,0.0,0.0,0.0,-0.0653724512006,0.0
1539699416497811794,130,1539699416497811794,map,0.0177941009604,-0.0306625726775,0.0,0.0,0.0,-0.0520950667575,0.0,0.0199753884537,-0.0283012667848,0.0,0.0,0.0,-0.0496128347081,0.0,0.015612813467,-0.0330238785703,0.0,0.0,0.0,-0.0545772988069,0.0
1539699416564537525,131,1539699416564537525,map,0.0145228464933,-0.0337018806385,0.0,0.0,0.0,-0.0439390698372,0.0,0.0167044929002,-0.0313243158894,0.0,0.0,0.0,-0.0413738190396,0.0,0.0123412000864,-0.0360794453877,0.0,0.0,0.0,-0.0465043206348,0.0
1539699416632092953,132,1539699416632092953,map,0.0183596671335,-0.0330005348284,0.0,0.0,0.0,-0.0552143841456,0.0,0.0204948863879,-0.0306618377463,0.0,0.0,0.0,-0.0526065149402,0.0,0.0162244478791,-0.0353392319105,0.0,0.0,0.0,-0.057822253351,0.0
1539699416698199272,133,1539699416698199272,map,0.0205361119803,-0.0331232252247,0.0,0.0,0.0,-0.0590875621955,0.0,0.0226769824397,-0.0307689141416,0.0,0.0,0.0,-0.0564322151633,0.0,0.018395241521,-0.0354775363078,0.0,0.0,0.0,-0.0617429092277,0.0
1539699416781405687,134,1539699416781405687,map,0.0205775032241,-0.0345079455326,0.0,0.0,0.0,-0.0598774279368,0.0,0.0227427966214,-0.0321140703503,0.0,0.0,0.0,-0.0571402632508,0.0,0.0184122098267,-0.0369018207149,0.0,0.0,0.0,-0.0626145926229,0.0
1539699416848155260,135,1539699416848155260,map,0.0163593391225,-0.0383787059826,0.0,0.0,0.0,-0.0486420422528,0.0,0.0185981605545,-0.0358932712701,0.0,0.0,0.0,-0.0458039133771,0.0,0.0141205176905,-0.0408641406952,0.0,0.0,0.0,-0.0514801711285,0.0
1539699416898917437,136,1539699416898917437,map,0.0174849390955,-0.0385754609676,0.0,0.0,0.0,-0.051699296737,0.0,0.0197655337559,-0.036041906519,0.0,0.0,0.0,-0.0488304042653,0.0,0.0152043444351,-0.0411090154163,0.0,0.0,0.0,-0.0545681892087,0.0
1539699416981471062,137,1539699416981471062,map,0.0212703486141,-0.0377115040635,0.0,0.0,0.0,-0.0619819972901,0.0,0.0235398959756,-0.0351764956989,0.0,0.0,0.0,-0.0590433603792,0.0,0.0190008012526,-0.0402465124282,0.0,0.0,0.0,-0.0649206342011,0.0
1539699417048552990,138,1539699417048552990,map,0.0223976392359,-0.0379138422791,0.0,0.0,0.0,-0.0655938472396,0.0,0.0246651037185,-0.0353694873466,0.0,0.0,0.0,-0.0625897653808,0.0,0.0201301747533,-0.0404581972116,0.0,0.0,0.0,-0.0685979290983,0.0
1539699417115240097,139,1539699417115240097,map,0.0201949231481,-0.0414027717241,0.0,0.0,0.0,-0.0571297551282,0.0,0.0224945605674,-0.0388106015491,0.0,0.0,0.0,-0.0540396979461,0.0,0.0178952857288,-0.0439949418991,0.0,0.0,0.0,-0.0602198123104,0.0
1539699417148378372,140,1539699417148378372,map,0.00856952882028,-0.0520523821559,0.0,0.0,0.0,-0.0205611414724,0.0,0.0109567053,-0.0493530550286,0.0,0.0,0.0,-0.0173512077521,0.0,0.00618235234058,-0.0547517092832,0.0,0.0,0.0,-0.0237710751927,0.0
1539699417248687267,141,1539699417248687267,map,0.0190579113976,-0.045368027691,0.0,0.0,0.0,-0.0482195490288,0.0,0.0214022585839,-0.0427060321685,0.0,0.0,0.0,-0.0449765974134,0.0,0.0167135642112,-0.0480300232134,0.0,0.0,0.0,-0.0514625006442,0.0
1539699417315128088,142,1539699417315128088,map,0.0200866612843,-0.0461028374351,0.0,0.0,0.0,-0.0504425821109,0.0,0.022438265326,-0.0434234954178,0.0,0.0,0.0,-0.0471304290802,0.0,0.0177350572426,-0.0487821794525,0.0,0.0,0.0,-0.0537547351417,0.0
1539699417382281065,143,1539699417382281065,map,0.0287269373967,-0.0390010654608,0.0,0.0,0.0,-0.075758530227,0.0,0.0310785414384,-0.0363217234435,0.0,0.0,0.0,-0.0724463771962,0.0,0.026375333355,-0.0416804074782,0.0,0.0,0.0,-0.0790706832577,0.0
1539699417448119640,144,1539699417448119640,map,0.0246396186555,-0.0444826756821,0.0,0.0,0.0,-0.0612901307816,0.0,0.0270151125121,-0.0417641172873,0.0,0.0,0.0,-0.057869914865,0.0,0.0222641247989,-0.047201234077,0.0,0.0,0.0,-0.0647103466982,0.0
1539699417515259266,145,1539699417515259266,map,0.0213091723668,-0.0495824627579,0.0,0.0,0.0,-0.0473781404414,0.0,0.0237321479266,-0.046802601371,0.0,0.0,0.0,-0.043853573453,0.0,0.018886196807,-0.0523623241447,0.0,0.0,0.0,-0.0509027074299,0.0
1539699417582235575,146,1539699417582235575,map,0.0294557636815,-0.0419793939268,0.0,0.0,0.0,-0.0734523729947,0.0,0.0318787392413,-0.03919953254,0.0,0.0,0.0,-0.0699278060062,0.0,0.0270327881217,-0.0447592553136,0.0,0.0,0.0,-0.0769769399832,0.0
1539699417648717880,147,1539699417648717880,map,0.027554180144,-0.0453469659005,0.0,0.0,0.0,-0.0641750566019,0.0,0.0300058753711,-0.042527553016,0.0,0.0,0.0,-0.0605514906859,0.0,0.0251024849169,-0.0481663787849,0.0,0.0,0.0,-0.0677986225179,0.0
1539699417715425014,148,1539699417715425014,map,0.0239981141081,-0.0514437917603,0.0,0.0,0.0,-0.0501443088871,0.0,0.0264909642478,-0.0485723200042,0.0,0.0,0.0,-0.0464020365009,0.0,0.0215052639684,-0.0543152635164,0.0,0.0,0.0,-0.0538865812733,0.0
1539699417781378508,149,1539699417781378508,map,0.0209682300241,-0.0577412242918,0.0,0.0,0.0,-0.0355748486215,0.0,0.0235458230131,-0.0547767584567,0.0,0.0,0.0,-0.0317240868321,0.0,0.0183906370352,-0.060705690127,0.0,0.0,0.0,-0.0394256104109,0.0
1539699417848927259,150,1539699417848927259,map,0.0281911400895,-0.0492522068809,0.0,0.0,0.0,-0.0603656437264,0.0,0.0307687330784,-0.0462877410457,0.0,0.0,0.0,-0.056514881937,0.0,0.0256135471005,-0.052216672716,0.0,0.0,0.0,-0.0642164055158,0.0
1539699417915561199,151,1539699417915561199,map,0.0232948333102,-0.0587903892835,0.0,0.0,0.0,-0.035165908931,0.0,0.0258786321319,-0.0558132758112,0.0,0.0,0.0,-0.0311797449264,0.0,0.0207110344884,-0.0617675027557,0.0,0.0,0.0,-0.0391520729355,0.0
1539699417981956482,152,1539699417981956482,map,0.0299381348088,-0.0500311367159,0.0,0.0,0.0,-0.0590363220277,0.0,0.0325219336306,-0.0470540232437,0.0,0.0,0.0,-0.0550501580232,0.0,0.0273543359871,-0.0530082501881,0.0,0.0,0.0,-0.0630224860322,0.0
1539699418047901869,153,1539699418047901869,map,0.0302224616862,-0.0516077391483,0.0,0.0,0.0,-0.0551923056999,0.0,0.0328239439637,-0.0486113615212,0.0,0.0,0.0,-0.0511287057016,0.0,0.0276209794088,-0.0546041167755,0.0,0.0,0.0,-0.0592559056983,0.0
1539699418131926537,154,1539699418131926537,map,0.0287038365424,-0.0560416997364,0.0,0.0,0.0,-0.0453402419448,0.0,0.031346228573,-0.0530046860198,0.0,0.0,0.0,-0.0411766549094,0.0,0.0260614445119,-0.059078713453,0.0,0.0,0.0,-0.0495038289802,0.0
1539699418197801590,155,1539699418197801590,map,0.0272006327118,-0.0606503321352,0.0,0.0,0.0,-0.0363229208795,0.0,0.0299027734328,-0.0575568263563,0.0,0.0,0.0,-0.0320621656614,0.0,0.0244984919907,-0.0637438379142,0.0,0.0,0.0,-0.0405836760976,0.0
1539699418265242100,156,1539699418265242100,map,0.0322270477867,-0.053154003004,0.0,0.0,0.0,-0.0552372383946,0.0,0.0349546716794,-0.0500355346371,0.0,0.0,0.0,-0.0509649204874,0.0,0.029499423894,-0.0562724713709,0.0,0.0,0.0,-0.0595095563018,0.0
1539699418332183123,157,1539699418332183123,map,0.0308886913135,-0.0573550993723,0.0,0.0,0.0,-0.0474419096761,0.0,0.0336291049535,-0.0542299393289,0.0,0.0,0.0,-0.0430814629265,0.0,0.0281482776735,-0.0604802594157,0.0,0.0,0.0,-0.0518023564257,0.0
1539699418398097754,158,1539699418398097754,map,0.0298271918671,-0.0620695824849,0.0,0.0,0.0,-0.0398949191911,0.0,0.0325829932062,-0.0589380976101,0.0,0.0,0.0,-0.0354463381457,0.0,0.0270713905279,-0.0652010673598,0.0,0.0,0.0,-0.0443435002365,0.0
1539699418464899302,159,1539699418464899302,map,0.0350513459304,-0.0523201025936,0.0,0.0,0.0,-0.0634743010152,0.0,0.0378071472696,-0.0491886177188,0.0,0.0,0.0,-0.0590257199698,0.0,0.0322955445912,-0.0554515874685,0.0,0.0,0.0,-0.0679228820606,0.0
1539699418532020330,160,1539699418532020330,map,0.033457412835,-0.0585708286368,0.0,0.0,0.0,-0.0512003626093,0.0,0.0362573076573,-0.0554089738409,0.0,0.0,0.0,-0.0466486022018,0.0,0.0306575180127,-0.0617326834327,0.0,0.0,0.0,-0.0557521230167,0.0
1539699418598461390,161,1539699418598461390,map,0.0323907556592,-0.0650260072709,0.0,0.0,0.0,-0.0385875396093,0.0,0.0352679493371,-0.0618045906979,0.0,0.0,0.0,-0.0339443774164,0.0,0.0295135619813,-0.0682474238438,0.0,0.0,0.0,-0.0432307018022,0.0
1539699418665458679,162,1539699418665458679,map,0.0369213452337,-0.0546957154682,0.0,0.0,0.0,-0.0624783419577,0.0,0.0397985389116,-0.0514742988952,0.0,0.0,0.0,-0.0578351797647,0.0,0.0340441515558,-0.0579171320411,0.0,0.0,0.0,-0.0671215041506,0.0
1539699418731878042,163,1539699418731878042,map,0.0348825788827,-0.0643294528622,0.0,0.0,0.0,-0.0449180129509,0.0,0.0378378667145,-0.0610567333689,0.0,0.0,0.0,-0.0401632637127,0.0,0.0319272910509,-0.0676021723556,0.0,0.0,0.0,-0.0496727621892,0.0
1539699418798652411,164,1539699418798652411,map,0.0352867876461,-0.0669513747254,0.0,0.0,0.0,-0.0415235570481,0.0,0.0382408471415,-0.063701391714,0.0,0.0,0.0,-0.0366914654321,0.0,0.0323327281507,-0.0702013577368,0.0,0.0,0.0,-0.0463556486641,0.0
1539699418864644527,165,1539699418864644527,map,0.0391673506227,-0.0565953414577,0.0,0.0,0.0,-0.0647539794444,0.0,0.0421214101181,-0.0533453584463,0.0,0.0,0.0,-0.0599218878283,0.0,0.0362132911274,-0.0598453244691,0.0,0.0,0.0,-0.0695860710604,0.0
1539699418932399511,166,1539699418932399511,map,0.0388427055068,-0.0629937627274,0.0,0.0,0.0,-0.0523506725054,0.0,0.0418727279705,-0.0596992108028,0.0,0.0,0.0,-0.0474238416284,0.0,0.0358126830431,-0.0662883146521,0.0,0.0,0.0,-0.0572775033823,0.0
1539699418998871088,167,1539699418998871088,map,0.0387142759574,-0.0686377432387,0.0,0.0,0.0,-0.0388124796878,0.0,0.0418128189201,-0.0653090251264,0.0,0.0,0.0,-0.0337945826956,0.0,0.0356157329947,-0.0719664613511,0.0,0.0,0.0,-0.04383037668,0.0
1539699419064440727,168,1539699419064440727,map,0.0406718835702,-0.0649885055247,0.0,0.0,0.0,-0.0470677070435,0.0,0.0437953548488,-0.0616512241886,0.0,0.0,0.0,-0.042012114846,0.0,0.0375484122917,-0.0683257868608,0.0,0.0,0.0,-0.0521232992409,0.0
1539699419131941080,169,1539699419131941080,map,0.0434102394034,-0.0545504462464,0.0,0.0,0.0,-0.069338460912,0.0,0.0465337106819,-0.0512131649103,0.0,0.0,0.0,-0.0642828687146,0.0,0.0402867681248,-0.0578877275825,0.0,0.0,0.0,-0.0743940531095,0.0
1539699419215121984,170,1539699419215121984,map,0.0437108071622,-0.0592216018176,0.0,0.0,0.0,-0.0611806251705,0.0,0.0469155445437,-0.0558495035708,0.0,0.0,0.0,-0.0560234465037,0.0,0.0405060697808,-0.0625937000644,0.0,0.0,0.0,-0.0663378038373,0.0
1539699419281268120,171,1539699419281268120,map,0.0441598520842,-0.0659160788064,0.0,0.0,0.0,-0.0469976900551,0.0,0.0474522523927,-0.0625055481351,0.0,0.0,0.0,-0.0417415768313,0.0,0.0408674517757,-0.0693266094778,0.0,0.0,0.0,-0.0522538032789,0.0
1539699419348758459,172,1539699419348758459,map,0.0446736065374,-0.0689405875217,0.0,0.0,0.0,-0.0366796647312,0.0,0.0480172150059,-0.0655226268528,0.0,0.0,0.0,-0.0313382442217,0.0,0.0413299980689,-0.0723585481906,0.0,0.0,0.0,-0.0420210852408,0.0
1539699419415590286,173,1539699419415590286,map,0.0452139435872,-0.0696960683013,0.0,0.0,0.0,-0.0287947003303,0.0,0.0485903380077,-0.0662838860595,0.0,0.0,0.0,-0.023384129448,0.0,0.0418375491667,-0.073108250543,0.0,0.0,0.0,-0.0342052712127,0.0
1539699419482075691,174,1539699419482075691,map,0.0461696460273,-0.0587458921599,0.0,0.0,0.0,-0.0409589543397,0.0,0.0495460404478,-0.0553337099182,0.0,0.0,0.0,-0.0355483834574,0.0,0.0427932516068,-0.0621580744017,0.0,0.0,0.0,-0.0463695252221,0.0
1539699419547806025,175,1539699419547806025,map,0.0457100815948,-0.0642905365687,0.0,0.0,0.0,-0.0250697330212,0.0,0.0491589261897,-0.0608656942123,0.0,0.0,0.0,-0.0195679806882,0.0,0.0422612369998,-0.0677153789252,0.0,0.0,0.0,-0.0305714853541,0.0
1539699419615175724,176,1539699419615175724,map,0.0452287284314,-0.0703439498595,0.0,0.0,0.0,-0.0193734759501,0.0,0.0487530773033,-0.0669088565439,0.0,0.0,0.0,-0.0137898199375,0.0,0.0417043795595,-0.0737790431752,0.0,0.0,0.0,-0.0249571319627,0.0
1539699419681212425,177,1539699419681212425,map,0.0452185169481,-0.0703461799998,0.0,0.0,0.0,-0.0222459680963,0.0,0.04883507705,-0.0668624643632,0.0,0.0,0.0,-0.0166187068655,0.0,0.0416019568463,-0.0738298956364,0.0,0.0,0.0,-0.0278732293271,0.0
1539699419748415947,178,1539699419748415947,map,0.0453590287215,-0.0761692246861,0.0,0.0,0.0,-0.0169126700173,0.0,0.0491111346335,-0.0726202473048,0.0,0.0,0.0,-0.0112186532203,0.0,0.0416069228096,-0.0797182020674,0.0,0.0,0.0,-0.0226066868142,0.0
1539699419815240145,179,1539699419815240145,map,0.0454945181151,-0.0651721130619,0.0,0.0,0.0,-0.0278116763303,0.0,0.049246624027,-0.0616231356807,0.0,0.0,0.0,-0.0221176595334,0.0,0.0417424122031,-0.0687210904432,0.0,0.0,0.0,-0.0335056931272,0.0
1539699419881777763,180,1539699419881777763,map,0.0459053918574,-0.06515542687,0.0,0.0,0.0,-0.0272010235985,0.0,0.0496330067019,-0.0616799724618,0.0,0.0,0.0,-0.0214606772856,0.0,0.0421777770129,-0.0686308812782,0.0,0.0,0.0,-0.0329413699113,0.0
1539699419948141575,181,1539699419948141575,map,0.0463313881561,-0.0706199195665,0.0,0.0,0.0,-0.0245179535705,0.0,0.050131382247,-0.0671480043349,0.0,0.0,0.0,-0.0187182812798,0.0,0.0425313940653,-0.0740918347981,0.0,0.0,0.0,-0.0303176258612,0.0
1539699420014807463,182,1539699420014807463,map,0.046709625056,-0.0705597584754,0.0,0.0,0.0,-0.0244224539773,0.0,0.0506098504238,-0.0670414834068,0.0,0.0,0.0,-0.0185889388278,0.0,0.0428093996883,-0.074078033544,0.0,0.0,0.0,-0.0302559691269,0.0
1539699420081534386,183,1539699420081534386,map,0.0475932633803,-0.0773164453076,0.0,0.0,0.0,-0.0160742502674,0.0,0.0516449351644,-0.0737375303196,0.0,0.0,0.0,-0.0101780408749,0.0,0.0435415915963,-0.0808953602956,0.0,0.0,0.0,-0.0219704596599,0.0
1539699420148730278,184,1539699420148730278,map,0.0472670862596,-0.0662093522316,0.0,0.0,0.0,-0.0294710557766,0.0,0.0513187580436,-0.0626304372436,0.0,0.0,0.0,-0.0235748463842,0.0,0.0432154144756,-0.0697882672195,0.0,0.0,0.0,-0.0353672651691,0.0
1539699420214606285,185,1539699420214606285,map,0.0476725259042,-0.0667479478303,0.0,0.0,0.0,-0.0279602653696,0.0,0.0517167213874,-0.0632367935575,0.0,0.0,0.0,-0.0220226425617,0.0,0.043628330421,-0.0702591021032,0.0,0.0,0.0,-0.0338978881774,0.0
1539699420298552036,186,1539699420298552036,map,0.0483841402818,-0.0696046172184,0.0,0.0,0.0,-0.025156872999,0.0,0.0525593850019,-0.0660565722764,0.0,0.0,0.0,-0.0191642368115,0.0,0.0442088955617,-0.0731526621604,0.0,0.0,0.0,-0.0311495091865,0.0
1539699420365364075,187,1539699420365364075,map,0.0495285531014,-0.0745805156735,0.0,0.0,0.0,-0.0200927000286,0.0,0.0538751306073,-0.0709545859292,0.0,0.0,0.0,-0.0140460924712,0.0,0.0451819755954,-0.0782064454177,0.0,0.0,0.0,-0.0261393075859,0.0
1539699420431980610,188,1539699420431980610,map,0.048479491863,-0.0634508004826,0.0,0.0,0.0,-0.033893388631,0.0,0.0528260693689,-0.0598248707383,0.0,0.0,0.0,-0.0278467810736,0.0,0.0441329143571,-0.0670767302268,0.0,0.0,0.0,-0.0399399961883,0.0
1539699420497929335,189,1539699420497929335,map,0.0509118943363,-0.0752947338301,0.0,0.0,0.0,-0.0210930623845,0.0,0.0553092308898,-0.0717533213581,0.0,0.0,0.0,-0.0149789623633,0.0,0.0465145577829,-0.078836146302,0.0,0.0,0.0,-0.0272071624058,0.0
1539699420565316916,190,1539699420565316916,map,0.0515265335119,-0.0756180032455,0.0,0.0,0.0,-0.0216619625841,0.0,0.0559997045776,-0.072069870918,0.0,0.0,0.0,-0.0155138882416,0.0,0.0470533624462,-0.0791661355729,0.0,0.0,0.0,-0.0278100369265,0.0
1539699420632207394,191,1539699420632207394,map,0.0500855252802,-0.0645938961141,0.0,0.0,0.0,-0.035744960348,0.0,0.0545586963459,-0.0610457637866,0.0,0.0,0.0,-0.0295968860055,0.0,0.0456123542145,-0.0681420284415,0.0,0.0,0.0,-0.0418930346904,0.0
1539699420697951078,192,1539699420697951078,map,0.0518764184604,-0.0704718703431,0.0,0.0,0.0,-0.028553687903,0.0,0.0564892403043,-0.0668942670969,0.0,0.0,0.0,-0.0223495848301,0.0,0.0472635966166,-0.0740494735892,0.0,0.0,0.0,-0.0347577909758,0.0
1539699420765232086,193,1539699420765232086,map,0.0541378250807,-0.0767106718228,0.0,0.0,0.0,-0.0253512359836,0.0,0.0589533245859,-0.0730459932395,0.0,0.0,0.0,-0.019094855479,0.0,0.0493223255755,-0.0803753504061,0.0,0.0,0.0,-0.0316076164882,0.0
1539699420831772804,194,1539699420831772804,map,0.0523976234206,-0.06544231728,0.0,0.0,0.0,-0.0460233863857,0.0,0.0572131229258,-0.0617776386967,0.0,0.0,0.0,-0.0397670058811,0.0,0.0475821239154,-0.0691069958633,0.0,0.0,0.0,-0.0522797668903,0.0
1539699420898607969,195,1539699420898607969,map,0.0557553519905,-0.0722844560218,0.0,0.0,0.0,-0.0425563037591,0.0,0.0606014151075,-0.0687192506775,0.0,0.0,0.0,-0.0362410036586,0.0,0.0509092888734,-0.0758496613661,0.0,0.0,0.0,-0.0488716038595,0.0
1539699420964692831,196,1539699420964692831,map,0.0580898106627,-0.0749900168608,0.0,0.0,0.0,-0.0427915258766,0.0,0.0630412147692,-0.0714203108834,0.0,0.0,0.0,-0.0364237927107,0.0,0.0531384065562,-0.0785597228383,0.0,0.0,0.0,-0.0491592590426,0.0
1539699421031968117,197,1539699421031968117,map,0.0559563717591,-0.0640173512224,0.0,0.0,0.0,-0.0678866951825,0.0,0.0609077758656,-0.060447645245,0.0,0.0,0.0,-0.0615189620165,0.0,0.0510049676525,-0.0675870571998,0.0,0.0,0.0,-0.0742544283484,0.0
1539699421098042727,198,1539699421098042727,map,0.0600730820267,-0.0700005539921,0.0,0.0,0.0,-0.0524575282766,0.0,0.0651722097136,-0.066413381045,0.0,0.0,0.0,-0.046024940527,0.0,0.0549739543397,-0.0735877269391,0.0,0.0,0.0,-0.0588901160261,0.0
1539699421165630102,199,1539699421165630102,map,0.063521939043,-0.0744027380725,0.0,0.0,0.0,-0.0397769959525,0.0,0.0687345704734,-0.0708269422301,0.0,0.0,0.0,-0.0332742538739,0.0,0.0583093076126,-0.0779785339148,0.0,0.0,0.0,-0.0462797380311,0.0
1539699421231791973,200,1539699421231791973,map,0.0653388866296,-0.0747565894426,0.0,0.0,0.0,-0.0408815293881,0.0,0.0706290551574,-0.0711929414494,0.0,0.0,0.0,-0.0343221102459,0.0,0.0600487181018,-0.0783202374359,0.0,0.0,0.0,-0.0474409485304,0.0
1539699421298575401,201,1539699421298575401,map,0.0648285716639,-0.0698587949975,0.0,0.0,0.0,-0.0507593767367,0.0,0.0701654104179,-0.0662991323647,0.0,0.0,0.0,-0.0441718910258,0.0,0.05949173291,-0.0734184576303,0.0,0.0,0.0,-0.0573468624476,0.0
1539699421365333080,202,1539699421365333080,map,0.068301229873,-0.0735322086981,0.0,0.0,0.0,-0.0402543386482,0.0,0.0737680350134,-0.0699672897787,0.0,0.0,0.0,-0.0335887024195,0.0,0.0628344247325,-0.0770971276176,0.0,0.0,0.0,-0.0469199748769,0.0
1539699421432049513,203,1539699421432049513,map,0.064424382941,-0.0629001648944,0.0,0.0,0.0,-0.0665257878827,0.0,0.0698911880814,-0.0593352459749,0.0,0.0,0.0,-0.059860151654,0.0,0.0589575778005,-0.0664650838138,0.0,0.0,0.0,-0.0731914241114,0.0
1539699421514526129,204,1539699421514526129,map,0.0650453784223,-0.0613817356289,0.0,0.0,0.0,-0.067925639895,0.0,0.0706176255317,-0.05781447912,0.0,0.0,0.0,-0.0611894845487,0.0,0.059473131313,-0.0649489921378,0.0,0.0,0.0,-0.0746617952414,0.0
1539699421581358433,205,1539699421581358433,map,0.0693171823516,-0.0665260441424,0.0,0.0,0.0,-0.0518726181906,0.0,0.0750244442823,-0.0629631738215,0.0,0.0,0.0,-0.0450425777488,0.0,0.063609920421,-0.0700889144634,0.0,0.0,0.0,-0.0587026586325,0.0
1539699421647851706,206,1539699421647851706,map,0.0688028873124,-0.0639324671125,0.0,0.0,0.0,-0.0582257478754,0.0,0.0745726608886,-0.0603774121204,0.0,0.0,0.0,-0.0513433005836,0.0,0.0630331137362,-0.0674875221045,0.0,0.0,0.0,-0.0651081951673,0.0
1539699421715694189,207,1539699421715694189,map,0.0681860839804,-0.0611343625528,0.0,0.0,0.0,-0.0640972645719,0.0,0.0740421081022,-0.0575582052626,0.0,0.0,0.0,-0.0571726727607,0.0,0.0623300598587,-0.0647105198429,0.0,0.0,0.0,-0.0710218563832,0.0
1539699421781352282,208,1539699421781352282,map,0.0740528867985,-0.0684349978413,0.0,0.0,0.0,-0.0438810565141,0.0,0.0800450545025,-0.0648838534151,0.0,0.0,0.0,-0.0368414080546,0.0,0.0680607190945,-0.0719861422674,0.0,0.0,0.0,-0.0509207049736,0.0
1539699421848321676,209,1539699421848321676,map,0.0782748796857,-0.0728363098637,0.0,0.0,0.0,-0.0316125686986,0.0,0.0843942653688,-0.0692923454067,0.0,0.0,0.0,-0.02447701476,0.0,0.0721554940027,-0.0763802743206,0.0,0.0,0.0,-0.0387481226371,0.0
1539699421914862394,210,1539699421914862394,map,0.075962115981,-0.0676126063175,0.0,0.0,0.0,-0.0441816607065,0.0,0.0821461273309,-0.0640468406542,0.0,0.0,0.0,-0.0370184462726,0.0,0.069778104631,-0.0711783719809,0.0,0.0,0.0,-0.0513448751404,0.0
1539699421981238842,211,1539699421981238842,map,0.0767682282707,-0.0671533486019,0.0,0.0,0.0,-0.0449198546541,0.0,0.0830164427017,-0.0636119675618,0.0,0.0,0.0,-0.0376913947669,0.0,0.0705200138396,-0.0706947296421,0.0,0.0,0.0,-0.0521483145413,0.0
1539699422048527718,212,1539699422048527718,map,0.0708018641711,-0.0578460317971,0.0,0.0,0.0,-0.0699621701525,0.0,0.0770500786022,-0.0543046507569,0.0,0.0,0.0,-0.0627337102653,0.0,0.0645536497401,-0.0613874128373,0.0,0.0,0.0,-0.0771906300396,0.0
1539699422114802599,213,1539699422114802599,map,0.0754986152776,-0.0622475610814,0.0,0.0,0.0,-0.0586367452948,0.0,0.0818746132649,-0.058717736641,0.0,0.0,0.0,-0.0513109400931,0.0,0.0691226172903,-0.0657773855217,0.0,0.0,0.0,-0.0659625504966,0.0
1539699422181403637,214,1539699422181403637,map,0.0836849100249,-0.0697787691184,0.0,0.0,0.0,-0.0362806927008,0.0,0.0902740192061,-0.066206071862,0.0,0.0,0.0,-0.0288306588549,0.0,0.0770958008437,-0.0733514663748,0.0,0.0,0.0,-0.0437307265467,0.0
1539699422248439074,215,1539699422248439074,map,0.0770578350568,-0.0607070054792,0.0,0.0,0.0,-0.062866803801,0.0,0.0836469442379,-0.0571343082228,0.0,0.0,0.0,-0.0554167699551,0.0,0.0704687258756,-0.0642797027356,0.0,0.0,0.0,-0.0703168376468,0.0
1539699422315165043,216,1539699422315165043,map,0.0780709828205,-0.0605854320505,0.0,0.0,0.0,-0.0633673346191,0.0,0.0847736042321,-0.056988578132,0.0,0.0,0.0,-0.0558465219567,0.0,0.071368361409,-0.0641822859689,0.0,0.0,0.0,-0.0708881472816,0.0
1539699422381432295,217,1539699422381432295,map,0.0835551995667,-0.063995968143,0.0,0.0,0.0,-0.0477023078719,0.0,0.0904182042087,-0.0603683447339,0.0,0.0,0.0,-0.0400806634927,0.0,0.0766921949248,-0.0676235915521,0.0,0.0,0.0,-0.0553239522512,0.0
1539699422447831869,218,1539699422447831869,map,0.087868454425,-0.0664222554255,0.0,0.0,0.0,-0.0379875291417,0.0,0.0948751436794,-0.0627670049575,0.0,0.0,0.0,-0.0302588158165,0.0,0.0808617651707,-0.0700775058935,0.0,0.0,0.0,-0.045716242467,0.0
1539699422514568567,219,1539699422514568567,map,0.0802907699469,-0.0584076672084,0.0,0.0,0.0,-0.0640760491239,0.0,0.0872974592013,-0.0547524167403,0.0,0.0,0.0,-0.0563473357987,0.0,0.0732840806925,-0.0620629176764,0.0,0.0,0.0,-0.0718047624492,0.0
1539699422581900120,220,1539699422581900120,map,0.090681529949,-0.0657723315251,0.0,0.0,0.0,-0.0366386516296,0.0,0.0978910925119,-0.0620716365366,0.0,0.0,0.0,-0.0287692690537,0.0,0.0834719673862,-0.0694730265137,0.0,0.0,0.0,-0.0445080342055,0.0
1539699422664497375,221,1539699422664497375,map,0.0804183137131,-0.0559288582265,0.0,0.0,0.0,-0.0697536180891,0.0,0.087627876276,-0.0522281632379,0.0,0.0,0.0,-0.0618842355132,0.0,0.0732087511503,-0.0596295532151,0.0,0.0,0.0,-0.077623000665,0.0
1539699422732039928,222,1539699422732039928,map,0.0807790103485,-0.0550908386449,0.0,0.0,0.0,-0.0713996010246,0.0,0.0880345815874,-0.0514141559881,0.0,0.0,0.0,-0.0634629418695,0.0,0.0735234391096,-0.0587675213017,0.0,0.0,0.0,-0.0793362601798,0.0
1539699422798351288,223,1539699422798351288,map,0.0867988313534,-0.0583147667021,0.0,0.0,0.0,-0.0561739478537,0.0,0.0941861303988,-0.0546172723855,0.0,0.0,0.0,-0.0481242920334,0.0,0.0794115323079,-0.0620122610186,0.0,0.0,0.0,-0.0642236036739,0.0
1539699422864895105,224,1539699422864895105,map,0.0922934062633,-0.0605161491026,0.0,0.0,0.0,-0.0413327099641,0.0,0.0997669252148,-0.0568294455256,0.0,0.0,0.0,-0.0331769386641,0.0,0.0848198873118,-0.0642028526797,0.0,0.0,0.0,-0.0494884812641,0.0
1539699422932017326,225,1539699422932017326,map,0.0834506536684,-0.0536162326754,0.0,0.0,0.0,-0.0655524285427,0.0,0.0909241726199,-0.0499295290983,0.0,0.0,0.0,-0.0573966572427,0.0,0.0759771347168,-0.0573029362524,0.0,0.0,0.0,-0.0737081998428,0.0
1539699422998981714,226,1539699422998981714,map,0.0934106075313,-0.0586469640939,0.0,0.0,0.0,-0.0429202400649,0.0,0.101069701096,-0.0548906800724,0.0,0.0,0.0,-0.0346294580594,0.0,0.0857515139671,-0.0624032481155,0.0,0.0,0.0,-0.0512110220705,0.0
1539699423065011740,227,1539699423065011740,map,0.0944668565388,-0.0578588732832,0.0,0.0,0.0,-0.0404243718995,0.0,0.102180289483,-0.054102352006,0.0,0.0,0.0,-0.0320614875151,0.0,0.0867534235948,-0.0616153945604,0.0,0.0,0.0,-0.048787256284,0.0
1539699423131240845,228,1539699423131240845,map,0.0849588546682,-0.0521677919347,0.0,0.0,0.0,-0.0608471782427,0.0,0.0926722876122,-0.0484112706575,0.0,0.0,0.0,-0.0524842938583,0.0,0.0772454217242,-0.0559243132119,0.0,0.0,0.0,-0.0692100626271,0.0
1539699423198313236,229,1539699423198313236,map,0.0911195654258,-0.0548171176046,0.0,0.0,0.0,-0.0433657013313,0.0,0.098941668582,-0.0510297488893,0.0,0.0,0.0,-0.0348904443585,0.0,0.0832974622697,-0.0586044863199,0.0,0.0,0.0,-0.051840958304,0.0
1539699423264957190,230,1539699423264957190,map,0.0961012608098,-0.0566299009423,0.0,0.0,0.0,-0.0308493042711,0.0,0.104009223364,-0.0528205421354,0.0,0.0,0.0,-0.0222706442536,0.0,0.0881932982556,-0.0604392597492,0.0,0.0,0.0,-0.0394279642887,0.0
1539699423331808805,231,1539699423331808805,map,0.0894108076892,-0.0530557714404,0.0,0.0,0.0,-0.0420185829959,0.0,0.0973371561211,-0.049240482951,0.0,0.0,0.0,-0.0334175862156,0.0,0.0814844592572,-0.0568710599298,0.0,0.0,0.0,-0.0506195797763,0.0
1539699423398596525,232,1539699423398596525,map,0.0796031135806,-0.0480080069701,0.0,0.0,0.0,-0.0600355950811,0.0,0.0875294620126,-0.0441927184807,0.0,0.0,0.0,-0.0514345983007,0.0,0.0716767651487,-0.0518232954595,0.0,0.0,0.0,-0.0686365918614,0.0
1539699423465384007,233,1539699423465384007,map,0.0929369716451,-0.0535085761211,0.0,0.0,0.0,-0.03392071708,0.0,0.1010521709,-0.0495789361617,0.0,0.0,0.0,-0.0251705437817,0.0,0.0848217723903,-0.0574382160806,0.0,0.0,0.0,-0.0426708903783,0.0
1539699423531922817,234,1539699423531922817,map,0.0981294868089,-0.0552089705082,0.0,0.0,0.0,-0.0250398761072,0.0,0.106287525074,-0.0512752923192,0.0,0.0,0.0,-0.0162048612323,0.0,0.0899714485433,-0.0591426486973,0.0,0.0,0.0,-0.0338748909821,0.0
1539699423599066496,235,1539699423599066496,map,0.0880307728481,-0.0507477307598,0.0,0.0,0.0,-0.0431946395373,0.0,0.0961888111137,-0.0468140525707,0.0,0.0,0.0,-0.0343596246624,0.0,0.0798727345826,-0.0546814089488,0.0,0.0,0.0,-0.0520296544123,0.0
1539699423664586306,236,1539699423664586306,map,0.0995852113741,-0.0542638216755,0.0,0.0,0.0,-0.0244016964588,0.0,0.10787619812,-0.0502362662843,0.0,0.0,0.0,-0.01545128975,0.0,0.0912942246284,-0.0582913770668,0.0,0.0,0.0,-0.0333521031676,0.0
